[{"city_name":"北京","longitude":116.398,"latitude":39.908,"data":{"aqi":"39","updatetime":"17:35","wendu":"2","fengli":"2级","shidu":"20%","fengxiang":"西北风","sunrise_1":"07:36","sunset_1":"17:04"}},{"city_name":"天津","longitude":117.252,"latitude":39.104,"data":{"aqi":"56","updatetime":"17:40","wendu":"3","fengli":"1级","shidu":"14%","fengxiang":"西北风","sunrise_1":"07:31","sunset_1":"17:03"}},{"city_name":"石家庄市","longitude":114.489,"latitude":38.074,"data":{"aqi":"94","updatetime":"17:40","wendu":"2","fengli":"1级","shidu":"30%","fengxiang":"东南风","sunrise_1":"07:39","sunset_1":"17:17"}},{"city_name":"唐山市","longitude":118.18,"latitude":39.631,"data":{"aqi":"44","updatetime":"17:40","wendu":"-4","fengli":"1级","shidu":"36%","fengxiang":"西南风","sunrise_1":"07:29","sunset_1":"16:58"}},{"city_name":"秦皇岛市","longitude":119.634,"latitude":39.954,"data":{"aqi":"36","updatetime":"17:35","wendu":"-5","fengli":"0级","shidu":"52%","fengxiang":"北风","sunrise_1":"07:24","sunset_1":"16:51"}},{"city_name":"邯郸市","longitude":114.481,"latitude":36.61,"data":{"aqi":"89","updatetime":"17:40","wendu":"1","fengli":"1级","shidu":"62%","fengxiang":"东北风","sunrise_1":"07:35","sunset_1":"17:20"}},{"city_name":"邢台市","longitude":114.493,"latitude":37.068,"data":{"aqi":"","updatetime":"17:45","wendu":"2","fengli":"1级","shidu":"38%","fengxiang":"南风","sunrise_1":"07:36","sunset_1":"17:19"}},{"city_name":"保定市","longitude":115.474,"latitude":38.867,"data":{"aqi":"130","updatetime":"17:30","wendu":"0","fengli":"1级","shidu":"48%","fengxiang":"北风","sunrise_1":"07:37","sunset_1":"17:11"}},{"city_name":"张家口市","longitude":115.106,"latitude":40.492,"data":{"aqi":"40","updatetime":"17:35","wendu":"-10","fengli":"4级","shidu":"46%","fengxiang":"北风","sunrise_1":"07:45","sunset_1":"17:07"}},{"city_name":"承德市","longitude":117.885,"latitude":41.03,"data":{"aqi":"28","updatetime":"17:45","wendu":"-6","fengli":"2级","shidu":"36%","fengxiang":"西北风","sunrise_1":"07:33","sunset_1":"16:55"}},{"city_name":"沧州市","longitude":116.839,"latitude":38.304,"data":{"aqi":"50","updatetime":"17:40","wendu":"-1","fengli":"1级","shidu":"35%","fengxiang":"西北风","sunrise_1":"07:30","sunset_1":"17:07"}},{"city_name":"廊坊市","longitude":116.756,"latitude":39.393,"data":{"aqi":"55","updatetime":"17:35","wendu":"1","fengli":"1级","shidu":"30%","fengxiang":"西风","sunrise_1":"07:34","sunset_1":"17:04"}},{"city_name":"衡水市","longitude":115.699,"latitude":37.735,"data":{"aqi":"160","updatetime":"17:35","wendu":"1","fengli":"0级","shidu":"56%","fengxiang":"北风","sunrise_1":"07:33","sunset_1":"17:13"}},{"city_name":"太原市","longitude":112.522,"latitude":37.836,"data":{"aqi":"43","updatetime":"17:00","wendu":"2","fengli":"2级","shidu":"30%","fengxiang":"西风","sunrise_1":"07:46","sunset_1":"17:25"}},{"city_name":"大同市","longitude":113.227,"latitude":40.056,"data":{"aqi":"","updatetime":"17:00","wendu":"-7","fengli":"4级","shidu":"41%","fengxiang":"北风","sunrise_1":"07:49","sunset_1":"17:16"}},{"city_name":"阳泉市","longitude":113.593,"latitude":37.856,"data":{"aqi":"","updatetime":"17:00","wendu":"2","fengli":"3级","shidu":"18%","fengxiang":"西北风","sunrise_1":"07:42","sunset_1":"17:21"}},{"city_name":"长治市","longitude":113.123,"latitude":36.201,"data":{"aqi":"","updatetime":"17:00","wendu":"1","fengli":"2级","shidu":"38%","fengxiang":"东北风","sunrise_1":"07:39","sunset_1":"17:27"}},{"city_name":"晋城市","longitude":112.852,"latitude":35.491,"data":{"aqi":"","updatetime":"17:00","wendu":"4","fengli":"2级","shidu":"20%","fengxiang":"西风","sunrise_1":"07:39","sunset_1":"17:30"}},{"city_name":"朔州市","longitude":112.371,"latitude":39.415,"data":{"aqi":"","updatetime":"17:00","wendu":"-6","fengli":"2级","shidu":"31%","fengxiang":"北风","sunrise_1":"07:51","sunset_1":"17:22"}},{"city_name":"晋中市","longitude":112.753,"latitude":37.687,"data":{"aqi":"","updatetime":"17:00","wendu":"2","fengli":"2级","shidu":"29%","fengxiang":"东风","sunrise_1":"07:45","sunset_1":"17:25"}},{"city_name":"运城市","longitude":111.007,"latitude":35.026,"data":{"aqi":"","updatetime":"17:00","wendu":"5","fengli":"2级","shidu":"44%","fengxiang":"西风","sunrise_1":"07:45","sunset_1":"17:39"}},{"city_name":"忻州市","longitude":112.734,"latitude":38.416,"data":{"aqi":"","updatetime":"17:00","wendu":"-1","fengli":"2级","shidu":"23%","fengxiang":"北风","sunrise_1":"07:47","sunset_1":"17:23"}},{"city_name":"临汾市","longitude":111.519,"latitude":36.088,"data":{"aqi":"","updatetime":"17:00","wendu":"5","fengli":"3级","shidu":"21%","fengxiang":"西北风","sunrise_1":"07:45","sunset_1":"17:34"}},{"city_name":"吕梁市","longitude":111.151,"latitude":37.518,"data":{"aqi":"","updatetime":"17:00","wendu":"-2","fengli":"3级","shidu":"32%","fengxiang":"西北风","sunrise_1":"07:51","sunset_1":"17:32"}},{"city_name":"呼和浩特市","longitude":111.815,"latitude":40.867,"data":{"aqi":"70","updatetime":"17:00","wendu":"-12","fengli":"3级","shidu":"50%","fengxiang":"北风","sunrise_1":"07:58","sunset_1":"17:20"}},{"city_name":"包头市","longitude":109.93,"latitude":40.643,"data":{"aqi":"","updatetime":"17:00","wendu":"-8","fengli":"3级","shidu":"40%","fengxiang":"北风","sunrise_1":"08:05","sunset_1":"17:28"}},{"city_name":"乌海市","longitude":106.823,"latitude":39.691,"data":{"aqi":"","updatetime":"17:00","wendu":"-6","fengli":"1级","shidu":"28%","fengxiang":"西风","sunrise_1":"08:14","sunset_1":"17:43"}},{"city_name":"赤峰市","longitude":118.985,"latitude":42.29,"data":{"aqi":"","updatetime":"17:00","wendu":"-8","fengli":"3级","shidu":"35%","fengxiang":"北风","sunrise_1":"07:34","sunset_1":"16:47"}},{"city_name":"通辽市","longitude":122.135,"latitude":46.087,"data":{"aqi":"","updatetime":"17:00","wendu":"-9","fengli":"1级","shidu":"41%","fengxiang":"西风","sunrise_1":"07:25","sunset_1":"16:29"}},{"city_name":"鄂尔多斯市","longitude":109.974,"latitude":39.814,"data":{"aqi":"","updatetime":"17:00","wendu":"-10","fengli":"2级","shidu":"39%","fengxiang":"西北风","sunrise_1":"08:02","sunset_1":"17:31"}},{"city_name":"呼伦贝尔市","longitude":119.766,"latitude":49.212,"data":{"aqi":"","updatetime":"09:00","wendu":"-37","fengli":"2级","shidu":"65%","fengxiang":"西风","sunrise_1":"","sunset_1":""}},{"city_name":"巴彦淖尔市","longitude":107.387,"latitude":40.766,"data":{"aqi":"","updatetime":"","wendu":"","fengli":"","shidu":"","fengxiang":"","sunrise_1":"","sunset_1":""}},{"city_name":"乌兰察布市","longitude":113.121,"latitude":41.032,"data":{"aqi":"","updatetime":"","wendu":"","fengli":"","shidu":"","fengxiang":"","sunrise_1":"","sunset_1":""}},{"city_name":"兴安盟","longitude":122.135,"latitude":46.087,"data":{"aqi":"","updatetime":"","wendu":"","fengli":"","shidu":"","fengxiang":"","sunrise_1":"","sunset_1":""}},{"city_name":"锡林郭勒盟","longitude":116.099,"latitude":43.945,"data":{"aqi":"","updatetime":"","wendu":"","fengli":"","shidu":"","fengxiang":"","sunrise_1":"","sunset_1":""}},{"city_name":"阿拉善盟","longitude":105.686,"latitude":38.846,"data":{"aqi":"","updatetime":"","wendu":"","fengli":"","shidu":"","fengxiang":"","sunrise_1":"","sunset_1":""}},{"city_name":"沈阳市","longitude":123.416,"latitude":41.828,"data":{"aqi":"52","updatetime":"17:50","wendu":"-9","fengli":"1级","shidu":"48%","fengxiang":"东北风","sunrise_1":"07:14","sunset_1":"16:30"}},{"city_name":"大连市","longitude":121.616,"latitude":38.914,"data":{"aqi":"31","updatetime":"17:40","wendu":"-4","fengli":"3级","shidu":"44%","fengxiang":"北风","sunrise_1":"07:13","sunset_1":"16:46"}},{"city_name":"鞍山市","longitude":123.027,"latitude":41.063,"data":{"aqi":"","updatetime":"17:30","wendu":"-6","fengli":"2级","shidu":"38%","fengxiang":"东北风","sunrise_1":"07:14","sunset_1":"16:34"}},{"city_name":"抚顺市","longitude":123.954,"latitude":41.877,"data":{"aqi":"","updatetime":"17:30","wendu":"-10","fengli":"2级","shidu":"56%","fengxiang":"北风","sunrise_1":"07:12","sunset_1":"16:28"}},{"city_name":"本溪市","longitude":123.799,"latitude":41.293,"data":{"aqi":"","updatetime":"17:30","wendu":"-8","fengli":"1级","shidu":"48%","fengxiang":"北风","sunrise_1":"07:11","sunset_1":"16:30"}},{"city_name":"丹东市","longitude":124.384,"latitude":40.125,"data":{"aqi":"","updatetime":"17:40","wendu":"-4","fengli":"3级","shidu":"38%","fengxiang":"西北风","sunrise_1":"07:05","sunset_1":"16:32"}},{"city_name":"锦州市","longitude":121.097,"latitude":41.126,"data":{"aqi":"","updatetime":"17:40","wendu":"-4","fengli":"2级","shidu":"29%","fengxiang":"北风","sunrise_1":"07:21","sunset_1":"16:42"}},{"city_name":"营口市","longitude":122.299,"latitude":40.6,"data":{"aqi":"","updatetime":"17:30","wendu":"-6","fengli":"2级","shidu":"45%","fengxiang":"东北风","sunrise_1":"07:15","sunset_1":"16:38"}},{"city_name":"阜新市","longitude":121.675,"latitude":42.018,"data":{"aqi":"","updatetime":"17:40","wendu":"-8","fengli":"1级","shidu":"36%","fengxiang":"西南风","sunrise_1":"07:22","sunset_1":"16:37"}},{"city_name":"辽阳市","longitude":123.402,"latitude":41.151,"data":{"aqi":"","updatetime":"17:30","wendu":"-6","fengli":"1级","shidu":"43%","fengxiang":"北风","sunrise_1":"07:13","sunset_1":"16:33"}},{"city_name":"盘锦市","longitude":122.031,"latitude":41.163,"data":{"aqi":"","updatetime":"17:40","wendu":"-6","fengli":"2级","shidu":"39%","fengxiang":"北风","sunrise_1":"07:17","sunset_1":"16:38"}},{"city_name":"铁岭市","longitude":123.842,"latitude":42.286,"data":{"aqi":"","updatetime":"17:40","wendu":"-10","fengli":"0级","shidu":"51%","fengxiang":"北风","sunrise_1":"07:14","sunset_1":"16:28"}},{"city_name":"朝阳市","longitude":120.455,"latitude":41.585,"data":{"aqi":"","updatetime":"17:50","wendu":"-5","fengli":"1级","shidu":"31%","fengxiang":"北风","sunrise_1":"07:25","sunset_1":"16:43"}},{"city_name":"葫芦岛市","longitude":120.836,"latitude":40.711,"data":{"aqi":"","updatetime":"17:45","wendu":"-7","fengli":"2级","shidu":"36%","fengxiang":"北风","sunrise_1":"07:21","sunset_1":"16:44"}},{"city_name":"长春市","longitude":125.325,"latitude":43.887,"data":{"aqi":"51","updatetime":"17:00","wendu":"-13","fengli":"1级","shidu":"55%","fengxiang":"西风","sunrise_1":"07:13","sunset_1":"16:16"}},{"city_name":"吉林市","longitude":126.469,"latitude":43.874,"data":{"aqi":"","updatetime":"17:00","wendu":"-13","fengli":"2级","shidu":"54%","fengxiang":"西北风","sunrise_1":"07:08","sunset_1":"16:11"}},{"city_name":"四平市","longitude":124.415,"latitude":43.097,"data":{"aqi":"","updatetime":"17:00","wendu":"-11","fengli":"1级","shidu":"54%","fengxiang":"西风","sunrise_1":"07:15","sunset_1":"16:22"}},{"city_name":"辽源市","longitude":125.146,"latitude":42.904,"data":{"aqi":"","updatetime":"17:00","wendu":"-13","fengli":"1级","shidu":"61%","fengxiang":"西北风","sunrise_1":"07:11","sunset_1":"16:20"}},{"city_name":"通化市","longitude":125.994,"latitude":41.751,"data":{"aqi":"","updatetime":"17:00","wendu":"-9","fengli":"2级","shidu":"51%","fengxiang":"北风","sunrise_1":"07:04","sunset_1":"16:20"}},{"city_name":"白山市","longitude":126.424,"latitude":41.94,"data":{"aqi":"","updatetime":"17:00","wendu":"-10","fengli":"2级","shidu":"53%","fengxiang":"西北风","sunrise_1":"07:02","sunset_1":"16:18"}},{"city_name":"松原市","longitude":124.825,"latitude":45.142,"data":{"aqi":"","updatetime":"17:00","wendu":"-12","fengli":"2级","shidu":"64%","fengxiang":"西风","sunrise_1":"07:19","sunset_1":"16:14"}},{"city_name":"白城市","longitude":122.851,"latitude":45.622,"data":{"aqi":"","updatetime":"17:00","wendu":"-10","fengli":"2级","shidu":"54%","fengxiang":"西南风","sunrise_1":"07:29","sunset_1":"16:20"}},{"city_name":"延边朝鲜族自治州","longitude":129.498,"latitude":42.894,"data":{"aqi":"","updatetime":"","wendu":"","fengli":"","shidu":"","fengxiang":"","sunrise_1":"","sunset_1":""}},{"city_name":"哈尔滨市","longitude":126.724,"latitude":45.973,"data":{"aqi":"83","updatetime":"17:00","wendu":"-15","fengli":"3级","shidu":"70%","fengxiang":"西南风","sunrise_1":"07:15","sunset_1":"16:04"}},{"city_name":"齐齐哈尔市","longitude":123.943,"latitude":47.432,"data":{"aqi":"","updatetime":"17:00","wendu":"-12","fengli":"3级","shidu":"55%","fengxiang":"西南风","sunrise_1":"07:31","sunset_1":"16:09"}},{"city_name":"鸡西市","longitude":130.939,"latitude":45.324,"data":{"aqi":"","updatetime":"17:00","wendu":"-13","fengli":"3级","shidu":"50%","fengxiang":"西风","sunrise_1":"06:56","sunset_1":"15:48"}},{"city_name":"鹤岗市","longitude":130.301,"latitude":47.334,"data":{"aqi":"","updatetime":"17:00","wendu":"-15","fengli":"3级","shidu":"52%","fengxiang":"西风","sunrise_1":"07:06","sunset_1":"15:43"}},{"city_name":"双鸭山市","longitude":131.188,"latitude":46.621,"data":{"aqi":"","updatetime":"17:00","wendu":"-13","fengli":"3级","shidu":"48%","fengxiang":"西风","sunrise_1":"07:00","sunset_1":"15:43"}},{"city_name":"大庆市","longitude":124.758,"latitude":46.402,"data":{"aqi":"","updatetime":"17:40","wendu":"-13","fengli":"2级","shidu":"62%","fengxiang":"西风","sunrise_1":"07:24","sunset_1":"16:07"}},{"city_name":"伊春市","longitude":128.919,"latitude":47.775,"data":{"aqi":"","updatetime":"17:00","wendu":"-16","fengli":"3级","shidu":"63%","fengxiang":"西风","sunrise_1":"07:13","sunset_1":"15:48"}},{"city_name":"佳木斯市","longitude":130.276,"latitude":46.77,"data":{"aqi":"","updatetime":"17:00","wendu":"-14","fengli":"2级","shidu":"54%","fengxiang":"西风","sunrise_1":"07:04","sunset_1":"15:45"}},{"city_name":"七台河市","longitude":131.016,"latitude":45.77,"data":{"aqi":"","updatetime":"17:00","wendu":"-14","fengli":"3级","shidu":"61%","fengxiang":"西风","sunrise_1":"06:57","sunset_1":"15:47"}},{"city_name":"牡丹江市","longitude":129.701,"latitude":44.514,"data":{"aqi":"","updatetime":"17:00","wendu":"-13","fengli":"4级","shidu":"53%","fengxiang":"西风","sunrise_1":"06:58","sunset_1":"15:56"}},{"city_name":"黑河市","longitude":127.501,"latitude":50.248,"data":{"aqi":"","updatetime":"17:30","wendu":"-16","fengli":"1级","shidu":"68%","fengxiang":"西南风","sunrise_1":"07:29","sunset_1":"15:42"}},{"city_name":"绥化市","longitude":126.98,"latitude":46.637,"data":{"aqi":"","updatetime":"17:00","wendu":"-18","fengli":"1级","shidu":"72%","fengxiang":"西风","sunrise_1":"07:16","sunset_1":"15:59"}},{"city_name":"大兴安岭地区","longitude":124.397,"latitude":51.674,"data":{"aqi":"","updatetime":"","wendu":"","fengli":"","shidu":"","fengxiang":"","sunrise_1":"","sunset_1":""}},{"city_name":"上海","longitude":121.469,"latitude":31.238,"data":{"aqi":"72","updatetime":"17:44","wendu":"9","fengli":"1级","shidu":"69%","fengxiang":"东风","sunrise_1":"06:54","sunset_1":"17:06"}},{"city_name":"南京市","longitude":118.798,"latitude":32.056,"data":{"aqi":"73","updatetime":"17:45","wendu":"6","fengli":"1级","shidu":"78%","fengxiang":"北风","sunrise_1":"07:06","sunset_1":"17:15"}},{"city_name":"无锡市","longitude":120.32,"latitude":31.526,"data":{"aqi":"88","updatetime":"17:45","wendu":"8","fengli":"1级","shidu":"75%","fengxiang":"西北风","sunrise_1":"06:59","sunset_1":"17:10"}},{"city_name":"徐州市","longitude":118.351,"latitude":34.292,"data":{"aqi":"100","updatetime":"17:35","wendu":"3","fengli":"2级","shidu":"92%","fengxiang":"北风","sunrise_1":"07:18","sunset_1":"17:16"}},{"city_name":"常州市","longitude":119.939,"latitude":31.756,"data":{"aqi":"83","updatetime":"17:50","wendu":"8","fengli":"0级","shidu":"73%","fengxiang":"北风","sunrise_1":"07:01","sunset_1":"17:11"}},{"city_name":"苏州市","longitude":120.407,"latitude":31.237,"data":{"aqi":"76","updatetime":"17:25","wendu":"8","fengli":"2级","shidu":"72%","fengxiang":"北风","sunrise_1":"06:58","sunset_1":"17:09"}},{"city_name":"南通市","longitude":120.908,"latitude":31.954,"data":{"aqi":"65","updatetime":"17:30","wendu":"7","fengli":"2级","shidu":"75%","fengxiang":"东北风","sunrise_1":"06:58","sunset_1":"17:07"}},{"city_name":"连云港市","longitude":119.507,"latitude":34.609,"data":{"aqi":"89","updatetime":"17:30","wendu":"4","fengli":"1级","shidu":"82%","fengxiang":"西北风","sunrise_1":"07:11","sunset_1":"17:07"}},{"city_name":"淮安市","longitude":119.057,"latitude":33.603,"data":{"aqi":"56","updatetime":"17:45","wendu":"7","fengli":"1级","shidu":"67%","fengxiang":"西风","sunrise_1":"07:09","sunset_1":"17:10"}},{"city_name":"盐城市","longitude":120.163,"latitude":33.347,"data":{"aqi":"63","updatetime":"17:45","wendu":"6","fengli":"2级","shidu":"80%","fengxiang":"西风","sunrise_1":"07:04","sunset_1":"17:06"}},{"city_name":"扬州市","longitude":119.413,"latitude":32.394,"data":{"aqi":"63","updatetime":"17:40","wendu":"6","fengli":"1级","shidu":"80%","fengxiang":"北风","sunrise_1":"07:05","sunset_1":"17:12"}},{"city_name":"镇江市","longitude":119.418,"latitude":32.059,"data":{"aqi":"88","updatetime":"17:25","wendu":"7","fengli":"1级","shidu":"74%","fengxiang":"东北风","sunrise_1":"07:04","sunset_1":"17:12"}},{"city_name":"泰州市","longitude":119.912,"latitude":32.36,"data":{"aqi":"68","updatetime":"17:45","wendu":"6","fengli":"1级","shidu":"82%","fengxiang":"西北风","sunrise_1":"07:03","sunset_1":"17:09"}},{"city_name":"宿迁市","longitude":118.275,"latitude":33.962,"data":{"aqi":"61","updatetime":"17:35","wendu":"6","fengli":"2级","shidu":"75%","fengxiang":"北风","sunrise_1":"07:13","sunset_1":"17:12"}},{"city_name":"杭州市","longitude":120.173,"latitude":30.274,"data":{"aqi":"86","updatetime":"17:50","wendu":"8","fengli":"1级","shidu":"84%","fengxiang":"西北风","sunrise_1":"06:57","sunset_1":"17:13"}},{"city_name":"宁波市","longitude":121.544,"latitude":29.868,"data":{"aqi":"67","updatetime":"17:55","wendu":"8","fengli":"3级","shidu":"87%","fengxiang":"西北风","sunrise_1":"06:50","sunset_1":"17:09"}},{"city_name":"温州市","longitude":120.655,"latitude":27.987,"data":{"aqi":"49","updatetime":"17:40","wendu":"13","fengli":"1级","shidu":"72%","fengxiang":"西北风","sunrise_1":"06:50","sunset_1":"17:16"}},{"city_name":"嘉兴市","longitude":120.759,"latitude":30.754,"data":{"aqi":"77","updatetime":"17:50","wendu":"8","fengli":"2级","shidu":"78%","fengxiang":"北风","sunrise_1":"06:56","sunset_1":"17:10"}},{"city_name":"湖州市","longitude":120.179,"latitude":30.785,"data":{"aqi":"82","updatetime":"17:50","wendu":"8","fengli":"0级","shidu":"87%","fengxiang":"北风","sunrise_1":"06:59","sunset_1":"17:12"}},{"city_name":"绍兴市","longitude":120.586,"latitude":29.996,"data":{"aqi":"83","updatetime":"17:30","wendu":"8","fengli":"1级","shidu":"89%","fengxiang":"北风","sunrise_1":"06:55","sunset_1":"17:12"}},{"city_name":"金华市","longitude":119.632,"latitude":29.031,"data":{"aqi":"80","updatetime":"17:45","wendu":"9","fengli":"2级","shidu":"87%","fengxiang":"东风","sunrise_1":"06:56","sunset_1":"17:18"}},{"city_name":"衢州市","longitude":118.926,"latitude":28.977,"data":{"aqi":"34","updatetime":"17:45","wendu":"10","fengli":"2级","shidu":"94%","fengxiang":"东北风","sunrise_1":"06:59","sunset_1":"17:21"}},{"city_name":"舟山市","longitude":122.106,"latitude":30.028,"data":{"aqi":"","updatetime":"17:40","wendu":"9","fengli":"2级","shidu":"81%","fengxiang":"北风","sunrise_1":"06:48","sunset_1":"17:06"}},{"city_name":"台州市","longitude":121.214,"latitude":28.627,"data":{"aqi":"35","updatetime":"17:50","wendu":"11","fengli":"2级","shidu":"80%","fengxiang":"东北风","sunrise_1":"06:48","sunset_1":"17:12"}},{"city_name":"丽水市","longitude":119.916,"latitude":28.452,"data":{"aqi":"40","updatetime":"17:50","wendu":"10","fengli":"2级","shidu":"83%","fengxiang":"东北风","sunrise_1":"06:54","sunset_1":"17:18"}},{"city_name":"合肥市","longitude":117.259,"latitude":31.796,"data":{"aqi":"76","updatetime":"17:45","wendu":"7","fengli":"1级","shidu":"82%","fengxiang":"西风","sunrise_1":"07:12","sunset_1":"17:22"}},{"city_name":"芜湖市","longitude":118.373,"latitude":31.407,"data":{"aqi":"","updatetime":"17:35","wendu":"8","fengli":"1级","shidu":"79%","fengxiang":"北风","sunrise_1":"07:06","sunset_1":"17:18"}},{"city_name":"蚌埠市","longitude":117.359,"latitude":32.947,"data":{"aqi":"","updatetime":"17:35","wendu":"7","fengli":"2级","shidu":"78%","fengxiang":"西风","sunrise_1":"07:14","sunset_1":"17:18"}},{"city_name":"淮南市","longitude":117.039,"latitude":32.65,"data":{"aqi":"","updatetime":"17:35","wendu":"8","fengli":"1级","shidu":"80%","fengxiang":"西风","sunrise_1":"07:15","sunset_1":"17:21"}},{"city_name":"马鞍山市","longitude":118.552,"latitude":31.693,"data":{"aqi":"","updatetime":"17:35","wendu":"7","fengli":"1级","shidu":"80%","fengxiang":"东风","sunrise_1":"07:07","sunset_1":"17:17"}},{"city_name":"淮北市","longitude":116.886,"latitude":34.019,"data":{"aqi":"","updatetime":"17:35","wendu":"3","fengli":"2级","shidu":"96%","fengxiang":"北风","sunrise_1":"07:19","sunset_1":"17:18"}},{"city_name":"铜陵市","longitude":117.825,"latitude":30.924,"data":{"aqi":"","updatetime":"17:40","wendu":"7","fengli":"2级","shidu":"94%","fengxiang":"东北风","sunrise_1":"07:08","sunset_1":"17:21"}},{"city_name":"安庆市","longitude":117.11,"latitude":30.598,"data":{"aqi":"","updatetime":"17:45","wendu":"7","fengli":"2级","shidu":"86%","fengxiang":"东北风","sunrise_1":"07:10","sunset_1":"17:25"}},{"city_name":"黄山市","longitude":118.249,"latitude":29.956,"data":{"aqi":"","updatetime":"17:45","wendu":"10","fengli":"1级","shidu":"91%","fengxiang":"东北风","sunrise_1":"07:03","sunset_1":"17:22"}},{"city_name":"滁州市","longitude":118.308,"latitude":32.308,"data":{"aqi":"","updatetime":"17:45","wendu":"7","fengli":"1级","shidu":"79%","fengxiang":"东北风","sunrise_1":"07:09","sunset_1":"17:16"}},{"city_name":"阜阳市","longitude":115.827,"latitude":32.908,"data":{"aqi":"","updatetime":"17:30","wendu":"5","fengli":"2级","shidu":"85%","fengxiang":"西北风","sunrise_1":"07:20","sunset_1":"17:25"}},{"city_name":"宿州市","longitude":116.985,"latitude":33.639,"data":{"aqi":"","updatetime":"17:40","wendu":"6","fengli":"2级","shidu":"79%","fengxiang":"北风","sunrise_1":"07:18","sunset_1":"17:18"}},{"city_name":"六安市","longitude":116.496,"latitude":31.749,"data":{"aqi":"","updatetime":"17:40","wendu":"6","fengli":"2级","shidu":"87%","fengxiang":"西北风","sunrise_1":"07:15","sunset_1":"17:25"}},{"city_name":"亳州市","longitude":115.779,"latitude":33.876,"data":{"aqi":"","updatetime":"17:45","wendu":"3","fengli":"2级","shidu":"86%","fengxiang":"西北风","sunrise_1":"07:23","sunset_1":"17:23"}},{"city_name":"池州市","longitude":117.491,"latitude":30.66,"data":{"aqi":"","updatetime":"17:45","wendu":"8","fengli":"2级","shidu":"90%","fengxiang":"东北风","sunrise_1":"07:08","sunset_1":"17:23"}},{"city_name":"宣城市","longitude":118.759,"latitude":30.941,"data":{"aqi":"","updatetime":"17:50","wendu":"7","fengli":"1级","shidu":"93%","fengxiang":"东风","sunrise_1":"07:04","sunset_1":"17:17"}},{"city_name":"福州市","longitude":119.306,"latitude":26.076,"data":{"aqi":"32","updatetime":"17:50","wendu":"15","fengli":"1级","shidu":"86%","fengxiang":"南风","sunrise_1":"06:51","sunset_1":"17:26"}},{"city_name":"厦门市","longitude":118.09,"latitude":24.48,"data":{"aqi":"37","updatetime":"17:45","wendu":"16","fengli":"3级","shidu":"92%","fengxiang":"东风","sunrise_1":"06:53","sunset_1":"17:34"}},{"city_name":"莆田市","longitude":119.108,"latitude":25.384,"data":{"aqi":"","updatetime":"17:50","wendu":"16","fengli":"2级","shidu":"86%","fengxiang":"东风","sunrise_1":"06:51","sunset_1":"17:28"}},{"city_name":"三明市","longitude":117.618,"latitude":26.256,"data":{"aqi":"","updatetime":"17:45","wendu":"16","fengli":"2级","shidu":"77%","fengxiang":"南风","sunrise_1":"06:58","sunset_1":"17:32"}},{"city_name":"泉州市","longitude":118.582,"latitude":24.922,"data":{"aqi":"","updatetime":"17:40","wendu":"16","fengli":"4级","shidu":"83%","fengxiang":"东北风","sunrise_1":"06:51","sunset_1":"17:31"}},{"city_name":"漳州市","longitude":117.655,"latitude":24.592,"data":{"aqi":"","updatetime":"17:50","wendu":"18","fengli":"2级","shidu":"84%","fengxiang":"东南风","sunrise_1":"06:55","sunset_1":"17:36"}},{"city_name":"南平市","longitude":118.182,"latitude":26.64,"data":{"aqi":"","updatetime":"17:50","wendu":"16","fengli":"2级","shidu":"74%","fengxiang":"东北风","sunrise_1":"06:57","sunset_1":"17:29"}},{"city_name":"龙岩市","longitude":117.034,"latitude":25.101,"data":{"aqi":"","updatetime":"17:35","wendu":"17","fengli":"1级","shidu":"68%","fengxiang":"北风","sunrise_1":"06:58","sunset_1":"17:37"}},{"city_name":"宁德市","longitude":119.537,"latitude":26.653,"data":{"aqi":"","updatetime":"17:40","wendu":"16","fengli":"2级","shidu":"79%","fengxiang":"南风","sunrise_1":"06:52","sunset_1":"17:24"}},{"city_name":"南昌市","longitude":115.827,"latitude":28.747,"data":{"aqi":"59","updatetime":"17:50","wendu":"10","fengli":"2级","shidu":"80%","fengxiang":"北风","sunrise_1":"07:11","sunset_1":"17:34"}},{"city_name":"景德镇市","longitude":117.144,"latitude":29.235,"data":{"aqi":"","updatetime":"17:55","wendu":"10","fengli":"0级","shidu":"89%","fengxiang":"北风","sunrise_1":"07:07","sunset_1":"17:28"}},{"city_name":"萍乡市","longitude":113.855,"latitude":27.623,"data":{"aqi":"","updatetime":"17:40","wendu":"8","fengli":"2级","shidu":"91%","fengxiang":"西风","sunrise_1":"07:16","sunset_1":"17:44"}},{"city_name":"九江市","longitude":115.998,"latitude":29.61,"data":{"aqi":"","updatetime":"17:45","wendu":"8","fengli":"2级","shidu":"88%","fengxiang":"西北风","sunrise_1":"07:12","sunset_1":"17:31"}},{"city_name":"新余市","longitude":114.934,"latitude":27.804,"data":{"aqi":"","updatetime":"17:45","wendu":"8","fengli":"1级","shidu":"100%","fengxiang":"东南风","sunrise_1":"07:12","sunset_1":"17:40"}},{"city_name":"鹰潭市","longitude":117.069,"latitude":28.26,"data":{"aqi":"","updatetime":"17:45","wendu":"9","fengli":"2级","shidu":"95%","fengxiang":"西北风","sunrise_1":"07:05","sunset_1":"17:30"}},{"city_name":"赣州市","longitude":114.942,"latitude":25.863,"data":{"aqi":"","updatetime":"17:35","wendu":"13","fengli":"2级","shidu":"81%","fengxiang":"西北风","sunrise_1":"07:08","sunset_1":"17:44"}},{"city_name":"吉安市","longitude":114.993,"latitude":27.113,"data":{"aqi":"","updatetime":"17:45","wendu":"11","fengli":"2级","shidu":"88%","fengxiang":"西北风","sunrise_1":"07:11","sunset_1":"17:41"}},{"city_name":"宜春市","longitude":114.395,"latitude":27.797,"data":{"aqi":"","updatetime":"17:40","wendu":"9","fengli":"2级","shidu":"88%","fengxiang":"西风","sunrise_1":"07:14","sunset_1":"17:42"}},{"city_name":"抚州市","longitude":116.363,"latitude":27.979,"data":{"aqi":"","updatetime":"17:50","wendu":"10","fengli":"3级","shidu":"83%","fengxiang":"北风","sunrise_1":"07:07","sunset_1":"17:34"}},{"city_name":"上饶市","longitude":117.976,"latitude":28.443,"data":{"aqi":"","updatetime":"17:50","wendu":"10","fengli":"0级","shidu":"99%","fengxiang":"北风","sunrise_1":"07:02","sunset_1":"17:26"}},{"city_name":"济南市","longitude":116.997,"latitude":36.651,"data":{"aqi":"185","updatetime":"17:40","wendu":"-2","fengli":"2级","shidu":"85%","fengxiang":"东风","sunrise_1":"07:25","sunset_1":"17:10"}},{"city_name":"青岛市","longitude":120.416,"latitude":36.108,"data":{"aqi":"61","updatetime":"17:55","wendu":"2","fengli":"4级","shidu":"45%","fengxiang":"北风","sunrise_1":"07:10","sunset_1":"16:59"}},{"city_name":"淄博市","longitude":118.099,"latitude":36.636,"data":{"aqi":"","updatetime":"17:40","wendu":"-2","fengli":"1级","shidu":"83%","fengxiang":"南风","sunrise_1":"07:21","sunset_1":"17:06"}},{"city_name":"枣庄市","longitude":117.324,"latitude":34.823,"data":{"aqi":"","updatetime":"17:40","wendu":"3","fengli":"2级","shidu":"99%","fengxiang":"西风","sunrise_1":"07:19","sunset_1":"17:14"}},{"city_name":"东营市","longitude":118.676,"latitude":37.435,"data":{"aqi":"","updatetime":"17:30","wendu":"0","fengli":"2级","shidu":"41%","fengxiang":"北风","sunrise_1":"07:20","sunset_1":"17:02"}},{"city_name":"烟台市","longitude":121.448,"latitude":37.464,"data":{"aqi":"","updatetime":"17:40","wendu":"0","fengli":"3级","shidu":"62%","fengxiang":"北风","sunrise_1":"07:09","sunset_1":"16:51"}},{"city_name":"潍坊市","longitude":119.162,"latitude":36.707,"data":{"aqi":"","updatetime":"17:45","wendu":"1","fengli":"2级","shidu":"50%","fengxiang":"西北风","sunrise_1":"07:16","sunset_1":"17:02"}},{"city_name":"济宁市","longitude":116.597,"latitude":35.407,"data":{"aqi":"","updatetime":"17:35","wendu":"2","fengli":"2级","shidu":"91%","fengxiang":"西北风","sunrise_1":"07:23","sunset_1":"17:15"}},{"city_name":"泰安市","longitude":117.088,"latitude":36.202,"data":{"aqi":"","updatetime":"17:45","wendu":"0","fengli":"2级","shidu":"87%","fengxiang":"东风","sunrise_1":"07:23","sunset_1":"17:11"}},{"city_name":"威海市","longitude":122.118,"latitude":37.513,"data":{"aqi":"","updatetime":"17:45","wendu":"1","fengli":"4级","shidu":"60%","fengxiang":"西北风","sunrise_1":"07:07","sunset_1":"16:48"}},{"city_name":"日照市","longitude":119.445,"latitude":35.423,"data":{"aqi":"","updatetime":"17:30","wendu":"0","fengli":"3级","shidu":"87%","fengxiang":"北风","sunrise_1":"07:12","sunset_1":"17:04"}},{"city_name":"莱芜市","longitude":117.678,"latitude":36.212,"data":{"aqi":"","updatetime":"17:40","wendu":"-1","fengli":"1级","shidu":"79%","fengxiang":"东北风","sunrise_1":"07:21","sunset_1":"17:09"}},{"city_name":"临沂市","longitude":118.346,"latitude":35.052,"data":{"aqi":"","updatetime":"17:35","wendu":"1","fengli":"2级","shidu":"95%","fengxiang":"东北风","sunrise_1":"07:16","sunset_1":"17:09"}},{"city_name":"德州市","longitude":116.303,"latitude":37.452,"data":{"aqi":"","updatetime":"17:40","wendu":"2","fengli":"1级","shidu":"47%","fengxiang":"东风","sunrise_1":"07:30","sunset_1":"17:11"}},{"city_name":"聊城市","longitude":115.985,"latitude":36.459,"data":{"aqi":"","updatetime":"17:55","wendu":"-1","fengli":"1级","shidu":"82%","fengxiang":"西风","sunrise_1":"07:29","sunset_1":"17:15"}},{"city_name":"滨州市","longitude":117.971,"latitude":37.382,"data":{"aqi":"","updatetime":"17:45","wendu":"1","fengli":"2级","shidu":"36%","fengxiang":"东北风","sunrise_1":"07:23","sunset_1":"17:05"}},{"city_name":"菏泽市","longitude":115.46,"latitude":35.247,"data":{"aqi":"","updatetime":"17:30","wendu":"2","fengli":"2级","shidu":"82%","fengxiang":"东北风","sunrise_1":"07:27","sunset_1":"17:20"}},{"city_name":"郑州市","longitude":113.658,"latitude":34.78,"data":{"aqi":"332","updatetime":"17:40","wendu":"4","fengli":"2级","shidu":"57%","fengxiang":"东风","sunrise_1":"07:34","sunset_1":"17:29"}},{"city_name":"开封市","longitude":114.347,"latitude":34.817,"data":{"aqi":"","updatetime":"17:45","wendu":"3","fengli":"2级","shidu":"68%","fengxiang":"东风","sunrise_1":"07:31","sunset_1":"17:26"}},{"city_name":"洛阳市","longitude":112.442,"latitude":34.652,"data":{"aqi":"","updatetime":"17:40","wendu":"6","fengli":"3级","shidu":"31%","fengxiang":"西北风","sunrise_1":"07:38","sunset_1":"17:34"}},{"city_name":"平顶山市","longitude":113.264,"latitude":33.742,"data":{"aqi":"","updatetime":"17:30","wendu":"8","fengli":"4级","shidu":"27%","fengxiang":"西北风","sunrise_1":"07:33","sunset_1":"17:33"}},{"city_name":"安阳市","longitude":114.275,"latitude":36.097,"data":{"aqi":"","updatetime":"17:40","wendu":"3","fengli":"1级","shidu":"53%","fengxiang":"东风","sunrise_1":"07:35","sunset_1":"17:23"}},{"city_name":"鹤壁市","longitude":114.297,"latitude":35.75,"data":{"aqi":"","updatetime":"17:35","wendu":"1","fengli":"2级","shidu":"69%","fengxiang":"东北风","sunrise_1":"07:33","sunset_1":"17:24"}},{"city_name":"新乡市","longitude":113.875,"latitude":35.347,"data":{"aqi":"","updatetime":"17:45","wendu":"3","fengli":"2级","shidu":"57%","fengxiang":"东风","sunrise_1":"07:34","sunset_1":"17:26"}},{"city_name":"焦作市","longitude":113.274,"latitude":35.269,"data":{"aqi":"","updatetime":"17:45","wendu":"3","fengli":"2级","shidu":"51%","fengxiang":"东北风","sunrise_1":"07:36","sunset_1":"17:29"}},{"city_name":"濮阳市","longitude":115.029,"latitude":35.762,"data":{"aqi":"","updatetime":"17:50","wendu":"1","fengli":"0级","shidu":"82%","fengxiang":"北风","sunrise_1":"07:31","sunset_1":"17:21"}},{"city_name":"许昌市","longitude":113.832,"latitude":34.022,"data":{"aqi":"","updatetime":"17:50","wendu":"4","fengli":"2级","shidu":"82%","fengxiang":"东风","sunrise_1":"07:31","sunset_1":"17:30"}},{"city_name":"漯河市","longitude":114.017,"latitude":33.581,"data":{"aqi":"","updatetime":"17:40","wendu":"4","fengli":"1级","shidu":"84%","fengxiang":"南风","sunrise_1":"07:29","sunset_1":"17:30"}},{"city_name":"三门峡市","longitude":111.2,"latitude":34.772,"data":{"aqi":"","updatetime":"17:50","wendu":"4","fengli":"2级","shidu":"59%","fengxiang":"西风","sunrise_1":"07:43","sunset_1":"17:39"}},{"city_name":"南阳市","longitude":112.548,"latitude":32.995,"data":{"aqi":"","updatetime":"17:45","wendu":"5","fengli":"2级","shidu":"80%","fengxiang":"西南风","sunrise_1":"07:34","sunset_1":"17:38"}},{"city_name":"商丘市","longitude":115.636,"latitude":34.416,"data":{"aqi":"","updatetime":"17:40","wendu":"2","fengli":"1级","shidu":"87%","fengxiang":"北风","sunrise_1":"07:25","sunset_1":"17:22"}},{"city_name":"信阳市","longitude":114.089,"latitude":32.107,"data":{"aqi":"","updatetime":"17:35","wendu":"4","fengli":"1级","shidu":"92%","fengxiang":"东南风","sunrise_1":"07:25","sunset_1":"17:33"}},{"city_name":"周口市","longitude":114.658,"latitude":33.618,"data":{"aqi":"","updatetime":"17:35","wendu":"5","fengli":"1级","shidu":"83%","fengxiang":"东风","sunrise_1":"07:27","sunset_1":"17:27"}},{"city_name":"驻马店市","longitude":114.028,"latitude":32.983,"data":{"aqi":"","updatetime":"17:40","wendu":"3","fengli":"1级","shidu":"88%","fengxiang":"南风","sunrise_1":"07:28","sunset_1":"17:32"}},{"city_name":"武汉市","longitude":114.381,"latitude":30.561,"data":{"aqi":"142","updatetime":"17:40","wendu":"7","fengli":"2级","shidu":"86%","fengxiang":"北风","sunrise_1":"07:21","sunset_1":"17:36"}},{"city_name":"黄石市","longitude":115.039,"latitude":30.2,"data":{"aqi":"","updatetime":"17:50","wendu":"7","fengli":"2级","shidu":"86%","fengxiang":"西北风","sunrise_1":"07:17","sunset_1":"17:34"}},{"city_name":"十堰市","longitude":110.702,"latitude":32.584,"data":{"aqi":"","updatetime":"17:45","wendu":"9","fengli":"1级","shidu":"52%","fengxiang":"东北风","sunrise_1":"07:40","sunset_1":"17:45"}},{"city_name":"宜昌市","longitude":111.261,"latitude":30.967,"data":{"aqi":"","updatetime":"17:50","wendu":"4","fengli":"2级","shidu":"94%","fengxiang":"西北风","sunrise_1":"07:33","sunset_1":"17:48"}},{"city_name":"鄂州市","longitude":114.894,"latitude":30.389,"data":{"aqi":"","updatetime":"17:35","wendu":"6","fengli":"2级","shidu":"88%","fengxiang":"西北风","sunrise_1":"07:18","sunset_1":"17:34"}},{"city_name":"荆门市","longitude":112.112,"latitude":31.1,"data":{"aqi":"","updatetime":"17:40","wendu":"6","fengli":"3级","shidu":"82%","fengxiang":"东北风","sunrise_1":"07:30","sunset_1":"17:44"}},{"city_name":"孝感市","longitude":113.917,"latitude":30.925,"data":{"aqi":"","updatetime":"17:40","wendu":"6","fengli":"2级","shidu":"80%","fengxiang":"东北风","sunrise_1":"07:23","sunset_1":"17:37"}},{"city_name":"荆州市","longitude":112.222,"latitude":30.391,"data":{"aqi":"","updatetime":"17:50","wendu":"7","fengli":"2级","shidu":"75%","fengxiang":"东北风","sunrise_1":"07:29","sunset_1":"17:45"}},{"city_name":"黄冈市","longitude":114.874,"latitude":30.459,"data":{"aqi":"","updatetime":"17:45","wendu":"6","fengli":"3级","shidu":"91%","fengxiang":"西北风","sunrise_1":"07:18","sunset_1":"17:34"}},{"city_name":"咸宁市","longitude":114.322,"latitude":29.834,"data":{"aqi":"","updatetime":"17:45","wendu":"6","fengli":"2级","shidu":"96%","fengxiang":"西北风","sunrise_1":"07:19","sunset_1":"17:38"}},{"city_name":"随州市","longitude":113.375,"latitude":31.717,"data":{"aqi":"","updatetime":"17:35","wendu":"5","fengli":"1级","shidu":"86%","fengxiang":"西风","sunrise_1":"07:27","sunset_1":"17:37"}},{"city_name":"恩施土家族苗族自治州","longitude":109.482,"latitude":30.29,"data":{"aqi":"","updatetime":"","wendu":"","fengli":"","shidu":"","fengxiang":"","sunrise_1":"","sunset_1":""}},{"city_name":"长沙市","longitude":113.009,"latitude":28.208,"data":{"aqi":"116","updatetime":"17:00","wendu":"6","fengli":"1级","shidu":"98%","fengxiang":"东风","sunrise_1":"07:21","sunset_1":"17:47"}},{"city_name":"株洲市","longitude":113.169,"latitude":27.887,"data":{"aqi":"","updatetime":"17:00","wendu":"7","fengli":"2级","shidu":"88%","fengxiang":"西北风","sunrise_1":"07:20","sunset_1":"17:47"}},{"city_name":"湘潭市","longitude":112.907,"latitude":27.856,"data":{"aqi":"","updatetime":"17:00","wendu":"7","fengli":"2级","shidu":"100%","fengxiang":"北风","sunrise_1":"07:20","sunset_1":"17:48"}},{"city_name":"衡阳市","longitude":112.637,"latitude":26.883,"data":{"aqi":"","updatetime":"17:00","wendu":"8","fengli":"1级","shidu":"88%","fengxiang":"北风","sunrise_1":"07:20","sunset_1":"17:51"}},{"city_name":"邵阳市","longitude":111.482,"latitude":27.24,"data":{"aqi":"","updatetime":"17:00","wendu":"7","fengli":"3级","shidu":"97%","fengxiang":"东北风","sunrise_1":"07:25","sunset_1":"17:55"}},{"city_name":"岳阳市","longitude":113.036,"latitude":29.445,"data":{"aqi":"","updatetime":"17:00","wendu":"6","fengli":"2级","shidu":"94%","fengxiang":"北风","sunrise_1":"07:23","sunset_1":"17:44"}},{"city_name":"常德市","longitude":111.699,"latitude":29.043,"data":{"aqi":"","updatetime":"17:00","wendu":"6","fengli":"1级","shidu":"83%","fengxiang":"东风","sunrise_1":"07:28","sunset_1":"17:50"}},{"city_name":"张家界市","longitude":110.475,"latitude":29.205,"data":{"aqi":"","updatetime":"17:00","wendu":"8","fengli":"2级","shidu":"73%","fengxiang":"东北风","sunrise_1":"07:33","sunset_1":"17:55"}},{"city_name":"益阳市","longitude":112.347,"latitude":28.583,"data":{"aqi":"","updatetime":"17:00","wendu":"6","fengli":"2级","shidu":"96%","fengxiang":"西北风","sunrise_1":"07:24","sunset_1":"17:48"}},{"city_name":"郴州市","longitude":113.029,"latitude":25.795,"data":{"aqi":"","updatetime":"17:00","wendu":"6","fengli":"2级","shidu":"99%","fengxiang":"北风","sunrise_1":"07:16","sunset_1":"17:52"}},{"city_name":"永州市","longitude":111.614,"latitude":26.226,"data":{"aqi":"","updatetime":"17:00","wendu":"9","fengli":"2级","shidu":"84%","fengxiang":"东北风","sunrise_1":"07:23","sunset_1":"17:56"}},{"city_name":"怀化市","longitude":109.998,"latitude":27.556,"data":{"aqi":"","updatetime":"17:00","wendu":"8","fengli":"2级","shidu":"80%","fengxiang":"东北风","sunrise_1":"07:32","sunset_1":"18:00"}},{"city_name":"娄底市","longitude":111.996,"latitude":27.702,"data":{"aqi":"","updatetime":"17:00","wendu":"6","fengli":"3级","shidu":"91%","fengxiang":"东风","sunrise_1":"07:24","sunset_1":"17:52"}},{"city_name":"湘西土家族苗族自治州","longitude":109.601,"latitude":27.947,"data":{"aqi":"","updatetime":"","wendu":"","fengli":"","shidu":"","fengxiang":"","sunrise_1":"","sunset_1":""}},{"city_name":"广州市","longitude":113.342,"latitude":23.127,"data":{"aqi":"37","updatetime":"17:40","wendu":"19","fengli":"2级","shidu":"69%","fengxiang":"北风","sunrise_1":"07:09","sunset_1":"17:56"}},{"city_name":"韶关市","longitude":113.546,"latitude":24.779,"data":{"aqi":"","updatetime":"17:55","wendu":"16","fengli":"2级","shidu":"83%","fengxiang":"东北风","sunrise_1":"07:11","sunset_1":"17:51"}},{"city_name":"深圳市","longitude":114.058,"latitude":22.544,"data":{"aqi":"42","updatetime":"17:40","wendu":"21","fengli":"3级","shidu":"71%","fengxiang":"北风","sunrise_1":"07:05","sunset_1":"17:54"}},{"city_name":"珠海市","longitude":113.386,"latitude":22.158,"data":{"aqi":"55","updatetime":"17:45","wendu":"22","fengli":"2级","shidu":"72%","fengxiang":"北风","sunrise_1":"07:07","sunset_1":"17:56"}},{"city_name":"汕头市","longitude":116.581,"latitude":23.339,"data":{"aqi":"","updatetime":"17:30","wendu":"19","fengli":"2级","shidu":"83%","fengxiang":"东南风","sunrise_1":"06:56","sunset_1":"17:42"}},{"city_name":"佛山市","longitude":113.121,"latitude":23.031,"data":{"aqi":"42","updatetime":"17:55","wendu":"18","fengli":"4级","shidu":"74%","fengxiang":"北风","sunrise_1":"07:10","sunset_1":"17:57"}},{"city_name":"江门市","longitude":113.029,"latitude":22.452,"data":{"aqi":"57","updatetime":"17:35","wendu":"21","fengli":"2级","shidu":"70%","fengxiang":"北风","sunrise_1":"07:09","sunset_1":"17:58"}},{"city_name":"湛江市","longitude":110.386,"latitude":21.157,"data":{"aqi":"","updatetime":"17:55","wendu":"20","fengli":"2级","shidu":"85%","fengxiang":"东南风","sunrise_1":"07:18","sunset_1":"18:11"}},{"city_name":"茂名市","longitude":110.858,"latitude":21.654,"data":{"aqi":"","updatetime":"17:40","wendu":"22","fengli":"2级","shidu":"83%","fengxiang":"东南风","sunrise_1":"07:16","sunset_1":"18:08"}},{"city_name":"肇庆市","longitude":112.465,"latitude":23.048,"data":{"aqi":"42","updatetime":"17:45","wendu":"19","fengli":"4级","shidu":"73%","fengxiang":"东北风","sunrise_1":"07:13","sunset_1":"17:59"}},{"city_name":"惠州市","longitude":114.417,"latitude":23.09,"data":{"aqi":"34","updatetime":"17:40","wendu":"19","fengli":"3级","shidu":"80%","fengxiang":"北风","sunrise_1":"07:05","sunset_1":"17:51"}},{"city_name":"梅州市","longitude":116.121,"latitude":24.29,"data":{"aqi":"","updatetime":"17:55","wendu":"17","fengli":"2级","shidu":"73%","fengxiang":"西北风","sunrise_1":"07:00","sunset_1":"17:42"}},{"city_name":"汕尾市","longitude":115.419,"latitude":22.781,"data":{"aqi":"","updatetime":"17:50","wendu":"20","fengli":"3级","shidu":"87%","fengxiang":"东风","sunrise_1":"07:00","sunset_1":"17:48"}},{"city_name":"河源市","longitude":114.7,"latitude":23.743,"data":{"aqi":"","updatetime":"17:35","wendu":"17","fengli":"3级","shidu":"67%","fengxiang":"北风","sunrise_1":"07:05","sunset_1":"17:49"}},{"city_name":"阳江市","longitude":111.982,"latitude":21.861,"data":{"aqi":"","updatetime":"17:55","wendu":"22","fengli":"3级","shidu":"75%","fengxiang":"东北风","sunrise_1":"07:12","sunset_1":"18:04"}},{"city_name":"清远市","longitude":113.045,"latitude":23.688,"data":{"aqi":"","updatetime":"17:55","wendu":"18","fengli":"4级","shidu":"71%","fengxiang":"北风","sunrise_1":"07:11","sunset_1":"17:56"}},{"city_name":"东莞市","longitude":113.752,"latitude":23.02,"data":{"aqi":"31","updatetime":"17:55","wendu":"20","fengli":"2级","shidu":"75%","fengxiang":"北风","sunrise_1":"07:07","sunset_1":"17:54"}},{"city_name":"中山市","longitude":113.393,"latitude":22.516,"data":{"aqi":"45","updatetime":"17:45","wendu":"21","fengli":"2级","shidu":"72%","fengxiang":"东北风","sunrise_1":"07:08","sunset_1":"17:57"}},{"city_name":"潮州市","longitude":116.622,"latitude":23.655,"data":{"aqi":"","updatetime":"17:45","wendu":"18","fengli":"1级","shidu":"89%","fengxiang":"南风","sunrise_1":"06:57","sunset_1":"17:41"}},{"city_name":"揭阳市","longitude":116.368,"latitude":23.549,"data":{"aqi":"","updatetime":"17:55","wendu":"19","fengli":"2级","shidu":"87%","fengxiang":"南风","sunrise_1":"06:58","sunset_1":"17:43"}},{"city_name":"云浮市","longitude":112.044,"latitude":22.929,"data":{"aqi":"","updatetime":"17:55","wendu":"19","fengli":"1级","shidu":"81%","fengxiang":"东风","sunrise_1":"07:14","sunset_1":"18:01"}},{"city_name":"南宁市","longitude":108.311,"latitude":22.654,"data":{"aqi":"71","updatetime":"17:50","wendu":"20","fengli":"3级","shidu":"77%","fengxiang":"东风","sunrise_1":"07:28","sunset_1":"18:16"}},{"city_name":"柳州市","longitude":109.38,"latitude":24.399,"data":{"aqi":"","updatetime":"17:40","wendu":"18","fengli":"2级","shidu":"64%","fengxiang":"东北风","sunrise_1":"07:27","sunset_1":"18:09"}},{"city_name":"桂林市","longitude":110.352,"latitude":25.176,"data":{"aqi":"","updatetime":"17:50","wendu":"13","fengli":"2级","shidu":"71%","fengxiang":"东北风","sunrise_1":"07:26","sunset_1":"18:04"}},{"city_name":"梧州市","longitude":111.296,"latitude":23.49,"data":{"aqi":"","updatetime":"17:40","wendu":"17","fengli":"4级","shidu":"76%","fengxiang":"东北风","sunrise_1":"07:18","sunset_1":"18:03"}},{"city_name":"北海市","longitude":109.321,"latitude":21.534,"data":{"aqi":"","updatetime":"17:40","wendu":"22","fengli":"2级","shidu":"77%","fengxiang":"西北风","sunrise_1":"07:23","sunset_1":"18:16"}},{"city_name":"防城港市","longitude":108.347,"latitude":21.616,"data":{"aqi":"","updatetime":"17:50","wendu":"21","fengli":"2级","shidu":"84%","fengxiang":"东北风","sunrise_1":"07:26","sunset_1":"18:18"}},{"city_name":"钦州市","longitude":108.654,"latitude":21.982,"data":{"aqi":"","updatetime":"17:30","wendu":"19","fengli":"2级","shidu":"89%","fengxiang":"东北风","sunrise_1":"07:26","sunset_1":"18:17"}},{"city_name":"贵港市","longitude":109.599,"latitude":23.112,"data":{"aqi":"","updatetime":"17:50","wendu":"20","fengli":"2级","shidu":"72%","fengxiang":"东北风","sunrise_1":"07:24","sunset_1":"18:11"}},{"city_name":"玉林市","longitude":110.165,"latitude":22.638,"data":{"aqi":"","updatetime":"17:40","wendu":"21","fengli":"2级","shidu":"77%","fengxiang":"东北风","sunrise_1":"07:21","sunset_1":"18:09"}},{"city_name":"百色市","longitude":106.619,"latitude":23.902,"data":{"aqi":"","updatetime":"17:30","wendu":"22","fengli":"2级","shidu":"63%","fengxiang":"东南风","sunrise_1":"07:38","sunset_1":"18:21"}},{"city_name":"贺州市","longitude":111.567,"latitude":24.404,"data":{"aqi":"","updatetime":"17:50","wendu":"14","fengli":"3级","shidu":"74%","fengxiang":"西风","sunrise_1":"07:19","sunset_1":"18:00"}},{"city_name":"河池市","longitude":108.086,"latitude":24.693,"data":{"aqi":"","updatetime":"17:50","wendu":"18","fengli":"2级","shidu":"72%","fengxiang":"东南风","sunrise_1":"07:33","sunset_1":"18:14"}},{"city_name":"来宾市","longitude":109.22,"latitude":23.752,"data":{"aqi":"","updatetime":"17:50","wendu":"19","fengli":"1级","shidu":"71%","fengxiang":"北风","sunrise_1":"07:27","sunset_1":"18:11"}},{"city_name":"崇左市","longitude":107.358,"latitude":22.403,"data":{"aqi":"","updatetime":"17:40","wendu":"19","fengli":"3级","shidu":"81%","fengxiang":"东风","sunrise_1":"07:32","sunset_1":"18:21"}},{"city_name":"海口市","longitude":110.331,"latitude":20.016,"data":{"aqi":"33","updatetime":"17:00","wendu":"22","fengli":"3级","shidu":"86%","fengxiang":"东北风","sunrise_1":"07:15","sunset_1":"18:14"}},{"city_name":"三亚市","longitude":109.512,"latitude":18.253,"data":{"aqi":"","updatetime":"17:20","wendu":"26","fengli":"2级","shidu":"76%","fengxiang":"东北风","sunrise_1":"07:15","sunset_1":"18:20"}},{"city_name":"重庆市","longitude":106.548,"latitude":29.555,"data":{"aqi":"78","updatetime":"17:40","wendu":"10","fengli":"1级","shidu":"95%","fengxiang":"北风","sunrise_1":"07:50","sunset_1":"18:09"}},{"city_name":"成都市","longitude":104.089,"latitude":30.711,"data":{"aqi":"185","updatetime":"17:00","wendu":"10","fengli":"1级","shidu":"50%","fengxiang":"东南风","sunrise_1":"08:02","sunset_1":"18:17"}},{"city_name":"自贡市","longitude":104.809,"latitude":29.3,"data":{"aqi":"","updatetime":"17:35","wendu":"11","fengli":"1级","shidu":"87%","fengxiang":"东风","sunrise_1":"07:56","sunset_1":"18:17"}},{"city_name":"攀枝花市","longitude":101.719,"latitude":26.584,"data":{"aqi":"","updatetime":"17:35","wendu":"19","fengli":"1级","shidu":"35%","fengxiang":"东南风","sunrise_1":"08:03","sunset_1":"18:35"}},{"city_name":"泸州市","longitude":105.409,"latitude":28.764,"data":{"aqi":"","updatetime":"17:40","wendu":"9","fengli":"1级","shidu":"99%","fengxiang":"西北风","sunrise_1":"07:53","sunset_1":"18:15"}},{"city_name":"德阳市","longitude":104.398,"latitude":31.128,"data":{"aqi":"","updatetime":"17:55","wendu":"10","fengli":"2级","shidu":"76%","fengxiang":"北风","sunrise_1":"08:02","sunset_1":"18:15"}},{"city_name":"绵阳市","longitude":104.743,"latitude":31.461,"data":{"aqi":"","updatetime":"17:55","wendu":"10","fengli":"2级","shidu":"61%","fengxiang":"东风","sunrise_1":"08:02","sunset_1":"18:13"}},{"city_name":"广元市","longitude":105.843,"latitude":32.435,"data":{"aqi":"","updatetime":"17:45","wendu":"9","fengli":"1级","shidu":"59%","fengxiang":"南风","sunrise_1":"07:59","sunset_1":"18:06"}},{"city_name":"遂宁市","longitude":105.537,"latitude":30.428,"data":{"aqi":"","updatetime":"17:40","wendu":"9","fengli":"1级","shidu":"99%","fengxiang":"东北风","sunrise_1":"07:56","sunset_1":"18:11"}},{"city_name":"内江市","longitude":105.127,"latitude":29.634,"data":{"aqi":"","updatetime":"17:40","wendu":"9","fengli":"1级","shidu":"93%","fengxiang":"东南风","sunrise_1":"07:56","sunset_1":"18:15"}},{"city_name":"乐山市","longitude":103.701,"latitude":29.47,"data":{"aqi":"","updatetime":"17:55","wendu":"10","fengli":"1级","shidu":"89%","fengxiang":"西风","sunrise_1":"08:01","sunset_1":"18:21"}},{"city_name":"南充市","longitude":106.083,"latitude":30.791,"data":{"aqi":"","updatetime":"17:55","wendu":"9","fengli":"0级","shidu":"90%","fengxiang":"北风","sunrise_1":"07:54","sunset_1":"18:08"}},{"city_name":"眉山市","longitude":103.844,"latitude":30.101,"data":{"aqi":"","updatetime":"17:35","wendu":"10","fengli":"0级","shidu":"88%","fengxiang":"北风","sunrise_1":"08:02","sunset_1":"18:19"}},{"city_name":"宜宾市","longitude":104.621,"latitude":28.771,"data":{"aqi":"","updatetime":"17:35","wendu":"10","fengli":"1级","shidu":"87%","fengxiang":"西风","sunrise_1":"07:56","sunset_1":"18:19"}},{"city_name":"广安市","longitude":106.633,"latitude":30.456,"data":{"aqi":"","updatetime":"17:45","wendu":"8","fengli":"1级","shidu":"97%","fengxiang":"东北风","sunrise_1":"07:51","sunset_1":"18:07"}},{"city_name":"达州市","longitude":107.501,"latitude":31.217,"data":{"aqi":"","updatetime":"17:45","wendu":"12","fengli":"1级","shidu":"65%","fengxiang":"东风","sunrise_1":"07:50","sunset_1":"18:02"}},{"city_name":"雅安市","longitude":103.013,"latitude":29.981,"data":{"aqi":"","updatetime":"17:35","wendu":"9","fengli":"1级","shidu":"94%","fengxiang":"西北风","sunrise_1":"08:05","sunset_1":"18:23"}},{"city_name":"巴中市","longitude":106.745,"latitude":31.865,"data":{"aqi":"","updatetime":"17:45","wendu":"10","fengli":"1级","shidu":"81%","fengxiang":"东风","sunrise_1":"07:54","sunset_1":"18:03"}},{"city_name":"资阳市","longitude":104.628,"latitude":30.127,"data":{"aqi":"","updatetime":"17:55","wendu":"10","fengli":"1级","shidu":"85%","fengxiang":"东风","sunrise_1":"07:59","sunset_1":"18:16"}},{"city_name":"阿坝藏族羌族自治州","longitude":102.222,"latitude":31.899,"data":{"aqi":"","updatetime":"","wendu":"","fengli":"","shidu":"","fengxiang":"","sunrise_1":"","sunset_1":""}},{"city_name":"甘孜藏族自治州","longitude":101.866,"latitude":30.141,"data":{"aqi":"","updatetime":"","wendu":"","fengli":"","shidu":"","fengxiang":"","sunrise_1":"","sunset_1":""}},{"city_name":"凉山彝族自治州","longitude":102.242,"latitude":27.91,"data":{"aqi":"","updatetime":"","wendu":"","fengli":"","shidu":"","fengxiang":"","sunrise_1":"","sunset_1":""}},{"city_name":"贵阳市","longitude":106.761,"latitude":26.543,"data":{"aqi":"70","updatetime":"17:00","wendu":"9","fengli":"3级","shidu":"90%","fengxiang":"东北风","sunrise_1":"07:43","sunset_1":"18:15"}},{"city_name":"六盘水市","longitude":104.873,"latitude":26.582,"data":{"aqi":"","updatetime":"17:00","wendu":"13","fengli":"3级","shidu":"54%","fengxiang":"东南风","sunrise_1":"07:50","sunset_1":"18:22"}},{"city_name":"遵义市","longitude":106.909,"latitude":27.658,"data":{"aqi":"","updatetime":"17:00","wendu":"9","fengli":"1级","shidu":"93%","fengxiang":"东南风","sunrise_1":"07:44","sunset_1":"18:12"}},{"city_name":"安顺市","longitude":105.939,"latitude":26.245,"data":{"aqi":"","updatetime":"17:00","wendu":"11","fengli":"4级","shidu":"80%","fengxiang":"东北风","sunrise_1":"07:45","sunset_1":"18:19"}},{"city_name":"铜仁地区","longitude":109.188,"latitude":27.718,"data":{"aqi":"","updatetime":"","wendu":"","fengli":"","shidu":"","fengxiang":"","sunrise_1":"","sunset_1":""}},{"city_name":"黔西南布依族苗族自治州","longitude":104.895,"latitude":25.094,"data":{"aqi":"","updatetime":"","wendu":"","fengli":"","shidu":"","fengxiang":"","sunrise_1":"","sunset_1":""}},{"city_name":"毕节地区","longitude":105.288,"latitude":27.303,"data":{"aqi":"","updatetime":"","wendu":"","fengli":"","shidu":"","fengxiang":"","sunrise_1":"","sunset_1":""}},{"city_name":"黔东南苗族侗族自治州","longitude":107.981,"latitude":26.583,"data":{"aqi":"","updatetime":"","wendu":"","fengli":"","shidu":"","fengxiang":"","sunrise_1":"","sunset_1":""}},{"city_name":"黔南布依族苗族自治州","longitude":107.511,"latitude":26.283,"data":{"aqi":"","updatetime":"","wendu":"","fengli":"","shidu":"","fengxiang":"","sunrise_1":"","sunset_1":""}},{"city_name":"昆明市","longitude":102.7,"latitude":25.013,"data":{"aqi":"34","updatetime":"17:40","wendu":"16","fengli":"3级","shidu":"29%","fengxiang":"西南风","sunrise_1":"07:55","sunset_1":"18:34"}},{"city_name":"曲靖市","longitude":103.801,"latitude":25.496,"data":{"aqi":"","updatetime":"17:50","wendu":"17","fengli":"2级","shidu":"25%","fengxiang":"西南风","sunrise_1":"07:52","sunset_1":"18:29"}},{"city_name":"玉溪市","longitude":102.546,"latitude":24.352,"data":{"aqi":"","updatetime":"17:45","wendu":"16","fengli":"3级","shidu":"35%","fengxiang":"西南风","sunrise_1":"07:55","sunset_1":"18:36"}},{"city_name":"保山市","longitude":99.163,"latitude":25.116,"data":{"aqi":"","updatetime":"17:55","wendu":"16","fengli":"2级","shidu":"32%","fengxiang":"南风","sunrise_1":"08:10","sunset_1":"18:48"}},{"city_name":"昭通市","longitude":103.714,"latitude":27.339,"data":{"aqi":"","updatetime":"17:40","wendu":"6","fengli":"2级","shidu":"69%","fengxiang":"东北风","sunrise_1":"07:56","sunset_1":"18:26"}},{"city_name":"丽江市","longitude":100.23,"latitude":26.876,"data":{"aqi":"","updatetime":"17:45","wendu":"15","fengli":"3级","shidu":"13%","fengxiang":"西南风","sunrise_1":"08:09","sunset_1":"18:41"}},{"city_name":"普洱市","longitude":100.971,"latitude":22.778,"data":{"aqi":"","updatetime":"17:50","wendu":"19","fengli":"2级","shidu":"42%","fengxiang":"西南风","sunrise_1":"07:58","sunset_1":"18:46"}},{"city_name":"临沧市","longitude":100.093,"latitude":23.88,"data":{"aqi":"","updatetime":"17:40","wendu":"18","fengli":"1级","shidu":"41%","fengxiang":"北风","sunrise_1":"08:04","sunset_1":"18:47"}},{"city_name":"楚雄彝族自治州","longitude":101.545,"latitude":25.055,"data":{"aqi":"","updatetime":"","wendu":"","fengli":"","shidu":"","fengxiang":"","sunrise_1":"","sunset_1":""}},{"city_name":"红河哈尼族彝族自治州","longitude":103.18,"latitude":23.43,"data":{"aqi":"","updatetime":"","wendu":"","fengli":"","shidu":"","fengxiang":"","sunrise_1":"","sunset_1":""}},{"city_name":"文山壮族苗族自治州","longitude":104.255,"latitude":23.38,"data":{"aqi":"","updatetime":"","wendu":"","fengli":"","shidu":"","fengxiang":"","sunrise_1":"","sunset_1":""}},{"city_name":"西双版纳傣族自治州","longitude":100.799,"latitude":22.011,"data":{"aqi":"","updatetime":"","wendu":"","fengli":"","shidu":"","fengxiang":"","sunrise_1":"","sunset_1":""}},{"city_name":"大理白族自治州","longitude":100.222,"latitude":25.584,"data":{"aqi":"","updatetime":"","wendu":"","fengli":"","shidu":"","fengxiang":"","sunrise_1":"","sunset_1":""}},{"city_name":"德宏傣族景颇族自治州","longitude":98.567,"latitude":24.448,"data":{"aqi":"","updatetime":"","wendu":"","fengli":"","shidu":"","fengxiang":"","sunrise_1":"","sunset_1":""}},{"city_name":"怒江傈僳族自治州","longitude":98.903,"latitude":25.858,"data":{"aqi":"","updatetime":"","wendu":"","fengli":"","shidu":"","fengxiang":"","sunrise_1":"","sunset_1":""}},{"city_name":"迪庆藏族自治州","longitude":99.709,"latitude":27.859,"data":{"aqi":"","updatetime":"","wendu":"","fengli":"","shidu":"","fengxiang":"","sunrise_1":"","sunset_1":""}},{"city_name":"拉萨市","longitude":91.125,"latitude":29.657,"data":{"aqi":"33","updatetime":"17:00","wendu":"7","fengli":"2级","shidu":"11%","fengxiang":"西北风","sunrise_1":"08:52","sunset_1":"19:11"}},{"city_name":"昌都地区","longitude":97.15,"latitude":31.182,"data":{"aqi":"","updatetime":"","wendu":"","fengli":"","shidu":"","fengxiang":"","sunrise_1":"","sunset_1":""}},{"city_name":"山南地区","longitude":91.805,"latitude":29.241,"data":{"aqi":"","updatetime":"","wendu":"","fengli":"","shidu":"","fengxiang":"","sunrise_1":"","sunset_1":""}},{"city_name":"日喀则地区","longitude":88.888,"latitude":29.272,"data":{"aqi":"","updatetime":"","wendu":"","fengli":"","shidu":"","fengxiang":"","sunrise_1":"","sunset_1":""}},{"city_name":"那曲地区","longitude":92.059,"latitude":31.452,"data":{"aqi":"","updatetime":"","wendu":"","fengli":"","shidu":"","fengxiang":"","sunrise_1":"","sunset_1":""}},{"city_name":"阿里地区","longitude":80.103,"latitude":32.552,"data":{"aqi":"","updatetime":"","wendu":"","fengli":"","shidu":"","fengxiang":"","sunrise_1":"","sunset_1":""}},{"city_name":"林芝地区","longitude":94.408,"latitude":29.635,"data":{"aqi":"","updatetime":"","wendu":"","fengli":"","shidu":"","fengxiang":"","sunrise_1":"","sunset_1":""}},{"city_name":"西安市","longitude":108.944,"latitude":34.265,"data":{"aqi":"336","updatetime":"17:00","wendu":"5","fengli":"1级","shidu":"59%","fengxiang":"南风","sunrise_1":"07:51","sunset_1":"17:49"}},{"city_name":"铜川市","longitude":108.981,"latitude":34.909,"data":{"aqi":"","updatetime":"17:30","wendu":"3","fengli":"1级","shidu":"73%","fengxiang":"南风","sunrise_1":"07:53","sunset_1":"17:47"}},{"city_name":"宝鸡市","longitude":106.952,"latitude":34.427,"data":{"aqi":"","updatetime":"17:50","wendu":"5","fengli":"2级","shidu":"59%","fengxiang":"东南风","sunrise_1":"07:58","sunset_1":"17:56"}},{"city_name":"咸阳市","longitude":108.765,"latitude":34.366,"data":{"aqi":"","updatetime":"17:50","wendu":"3","fengli":"1级","shidu":"71%","fengxiang":"东北风","sunrise_1":"07:52","sunset_1":"17:50"}},{"city_name":"渭南市","longitude":109.51,"latitude":34.5,"data":{"aqi":"","updatetime":"17:50","wendu":"3","fengli":"1级","shidu":"69%","fengxiang":"北风","sunrise_1":"07:49","sunset_1":"17:46"}},{"city_name":"延安市","longitude":109.49,"latitude":36.585,"data":{"aqi":"","updatetime":"17:50","wendu":"-1","fengli":"3级","shidu":"49%","fengxiang":"东北风","sunrise_1":"07:55","sunset_1":"17:41"}},{"city_name":"汉中市","longitude":107.032,"latitude":33.068,"data":{"aqi":"","updatetime":"17:40","wendu":"7","fengli":"0级","shidu":"70%","fengxiang":"北风","sunrise_1":"07:56","sunset_1":"18:00"}},{"city_name":"榆林市","longitude":109.735,"latitude":38.286,"data":{"aqi":"","updatetime":"17:30","wendu":"-5","fengli":"2级","shidu":"27%","fengxiang":"西北风","sunrise_1":"07:58","sunset_1":"17:35"}},{"city_name":"安康市","longitude":109.029,"latitude":32.685,"data":{"aqi":"","updatetime":"17:40","wendu":"8","fengli":"1级","shidu":"58%","fengxiang":"西北风","sunrise_1":"07:47","sunset_1":"17:52"}},{"city_name":"商洛市","longitude":109.941,"latitude":33.863,"data":{"aqi":"","updatetime":"17:30","wendu":"7","fengli":"2级","shidu":"29%","fengxiang":"西北风","sunrise_1":"07:46","sunset_1":"17:46"}},{"city_name":"兰州市","longitude":103.757,"latitude":36.076,"data":{"aqi":"60","updatetime":"17:50","wendu":"3","fengli":"1级","shidu":"31%","fengxiang":"东风","sunrise_1":"08:16","sunset_1":"18:05"}},{"city_name":"嘉峪关市","longitude":98.278,"latitude":39.784,"data":{"aqi":"","updatetime":"17:00","wendu":"-2","fengli":"2级","shidu":"55%","fengxiang":"东风","sunrise_1":"08:49","sunset_1":"18:17"}},{"city_name":"金昌市","longitude":102.194,"latitude":38.521,"data":{"aqi":"","updatetime":"17:00","wendu":"-2","fengli":"2级","shidu":"56%","fengxiang":"北风","sunrise_1":"08:29","sunset_1":"18:05"}},{"city_name":"白银市","longitude":104.142,"latitude":36.548,"data":{"aqi":"","updatetime":"17:00","wendu":"2","fengli":"2级","shidu":"33%","fengxiang":"东北风","sunrise_1":"08:16","sunset_1":"18:02"}},{"city_name":"天水市","longitude":105.726,"latitude":34.569,"data":{"aqi":"","updatetime":"17:00","wendu":"6","fengli":"2级","shidu":"36%","fengxiang":"东风","sunrise_1":"08:05","sunset_1":"18:01"}},{"city_name":"武威市","longitude":102.642,"latitude":37.928,"data":{"aqi":"","updatetime":"17:50","wendu":"-1","fengli":"2级","shidu":"46%","fengxiang":"东北风","sunrise_1":"08:26","sunset_1":"18:05"}},{"city_name":"张掖市","longitude":100.461,"latitude":38.931,"data":{"aqi":"","updatetime":"17:50","wendu":"-2","fengli":"2级","shidu":"47%","fengxiang":"西北风","sunrise_1":"08:37","sunset_1":"18:11"}},{"city_name":"平凉市","longitude":106.698,"latitude":35.53,"data":{"aqi":"","updatetime":"17:50","wendu":"3","fengli":"2级","shidu":"30%","fengxiang":"东北风","sunrise_1":"08:03","sunset_1":"17:55"}},{"city_name":"酒泉市","longitude":98.496,"latitude":39.734,"data":{"aqi":"","updatetime":"17:50","wendu":"-2","fengli":"2级","shidu":"50%","fengxiang":"东风","sunrise_1":"08:48","sunset_1":"18:16"}},{"city_name":"庆阳市","longitude":107.633,"latitude":35.739,"data":{"aqi":"","updatetime":"17:50","wendu":"1","fengli":"2级","shidu":"49%","fengxiang":"东风","sunrise_1":"08:00","sunset_1":"17:51"}},{"city_name":"定西市","longitude":104.611,"latitude":35.581,"data":{"aqi":"","updatetime":"17:50","wendu":"1","fengli":"2级","shidu":"31%","fengxiang":"东风","sunrise_1":"08:12","sunset_1":"18:03"}},{"city_name":"陇南市","longitude":104.923,"latitude":33.401,"data":{"aqi":"","updatetime":"","wendu":"","fengli":"","shidu":"","fengxiang":"","sunrise_1":"","sunset_1":""}},{"city_name":"临夏回族自治州","longitude":103.201,"latitude":35.591,"data":{"aqi":"","updatetime":"","wendu":"","fengli":"","shidu":"","fengxiang":"","sunrise_1":"","sunset_1":""}},{"city_name":"甘南藏族自治州","longitude":102.899,"latitude":34.985,"data":{"aqi":"","updatetime":"","wendu":"","fengli":"","shidu":"","fengxiang":"","sunrise_1":"","sunset_1":""}},{"city_name":"西宁市","longitude":101.785,"latitude":36.631,"data":{"aqi":"65","updatetime":"17:45","wendu":"0","fengli":"2级","shidu":"30%","fengxiang":"南风","sunrise_1":"08:26","sunset_1":"18:12"}},{"city_name":"海东地区","longitude":102.086,"latitude":36.509,"data":{"aqi":"","updatetime":"","wendu":"","fengli":"","shidu":"","fengxiang":"","sunrise_1":"","sunset_1":""}},{"city_name":"海北藏族自治州","longitude":100.973,"latitude":36.943,"data":{"aqi":"","updatetime":"","wendu":"","fengli":"","shidu":"","fengxiang":"","sunrise_1":"","sunset_1":""}},{"city_name":"黄南藏族自治州","longitude":102.027,"latitude":35.54,"data":{"aqi":"","updatetime":"","wendu":"","fengli":"","shidu":"","fengxiang":"","sunrise_1":"","sunset_1":""}},{"city_name":"海南藏族自治州","longitude":100.638,"latitude":36.324,"data":{"aqi":"","updatetime":"","wendu":"","fengli":"","shidu":"","fengxiang":"","sunrise_1":"","sunset_1":""}},{"city_name":"果洛藏族自治州","longitude":100.295,"latitude":34.478,"data":{"aqi":"","updatetime":"","wendu":"","fengli":"","shidu":"","fengxiang":"","sunrise_1":"","sunset_1":""}},{"city_name":"玉树藏族自治州","longitude":97.013,"latitude":33.018,"data":{"aqi":"","updatetime":"","wendu":"","fengli":"","shidu":"","fengxiang":"","sunrise_1":"","sunset_1":""}},{"city_name":"海西蒙古族藏族自治州","longitude":93.295,"latitude":38.131,"data":{"aqi":"","updatetime":"","wendu":"","fengli":"","shidu":"","fengxiang":"","sunrise_1":"","sunset_1":""}},{"city_name":"银川市","longitude":106.273,"latitude":38.475,"data":{"aqi":"130","updatetime":"17:00","wendu":"-4","fengli":"2级","shidu":"57%","fengxiang":"东北风","sunrise_1":"08:13","sunset_1":"17:49"}},{"city_name":"石嘴山市","longitude":106.368,"latitude":39.019,"data":{"aqi":"","updatetime":"17:00","wendu":"-4","fengli":"2级","shidu":"56%","fengxiang":"东风","sunrise_1":"08:14","sunset_1":"17:47"}},{"city_name":"吴忠市","longitude":106.2,"latitude":37.998,"data":{"aqi":"","updatetime":"17:00","wendu":"-2","fengli":"2级","shidu":"49%","fengxiang":"北风","sunrise_1":"08:12","sunset_1":"17:50"}},{"city_name":"固原市","longitude":106.243,"latitude":36.016,"data":{"aqi":"","updatetime":"17:00","wendu":"-1","fengli":"2级","shidu":"42%","fengxiang":"北风","sunrise_1":"08:06","sunset_1":"17:55"}},{"city_name":"中卫市","longitude":105.174,"latitude":37.517,"data":{"aqi":"","updatetime":"17:00","wendu":"0","fengli":"1级","shidu":"47%","fengxiang":"西风","sunrise_1":"08:14","sunset_1":"17:56"}},{"city_name":"乌鲁木齐市","longitude":87.605,"latitude":43.81,"data":{"aqi":"213","updatetime":"17:00","wendu":"-9","fengli":"2级","shidu":"94%","fengxiang":"东风","sunrise_1":"09:44","sunset_1":"18:47"}},{"city_name":"克拉玛依市","longitude":84.89,"latitude":45.58,"data":{"aqi":"","updatetime":"17:00","wendu":"-9","fengli":"2级","shidu":"80%","fengxiang":"东南风","sunrise_1":"10:01","sunset_1":"18:52"}},{"city_name":"吐鲁番地区","longitude":89.211,"latitude":43.007,"data":{"aqi":"","updatetime":"","wendu":"","fengli":"","shidu":"","fengxiang":"","sunrise_1":"","sunset_1":""}},{"city_name":"哈密地区","longitude":93.55,"latitude":42.899,"data":{"aqi":"","updatetime":"","wendu":"","fengli":"","shidu":"","fengxiang":"","sunrise_1":"","sunset_1":""}},{"city_name":"昌吉回族自治州","longitude":87.988,"latitude":44.004,"data":{"aqi":"","updatetime":"","wendu":"","fengli":"","shidu":"","fengxiang":"","sunrise_1":"","sunset_1":""}},{"city_name":"博尔塔拉蒙古自治州","longitude":82.079,"latitude":44.913,"data":{"aqi":"","updatetime":"","wendu":"","fengli":"","shidu":"","fengxiang":"","sunrise_1":"","sunset_1":""}},{"city_name":"阿克苏地区","longitude":80.245,"latitude":41.124,"data":{"aqi":"","updatetime":"","wendu":"","fengli":"","shidu":"","fengxiang":"","sunrise_1":"","sunset_1":""}},{"city_name":"克孜勒苏柯尔克孜自治州","longitude":76.67,"latitude":39.888,"data":{"aqi":"","updatetime":"","wendu":"","fengli":"","shidu":"","fengxiang":"","sunrise_1":"","sunset_1":""}},{"city_name":"喀什地区","longitude":75.999,"latitude":39.466,"data":{"aqi":"","updatetime":"","wendu":"","fengli":"","shidu":"","fengxiang":"","sunrise_1":"","sunset_1":""}},{"city_name":"和田地区","longitude":79.764,"latitude":37.23,"data":{"aqi":"","updatetime":"","wendu":"","fengli":"","shidu":"","fengxiang":"","sunrise_1":"","sunset_1":""}},{"city_name":"伊犁哈萨克自治州","longitude":81.338,"latitude":43.923,"data":{"aqi":"","updatetime":"","wendu":"","fengli":"","shidu":"","fengxiang":"","sunrise_1":"","sunset_1":""}},{"city_name":"塔城地区","longitude":83.015,"latitude":46.752,"data":{"aqi":"","updatetime":"","wendu":"","fengli":"","shidu":"","fengxiang":"","sunrise_1":"","sunset_1":""}},{"city_name":"阿勒泰地区","longitude":88.069,"latitude":47.81,"data":{"aqi":"","updatetime":"","wendu":"","fengli":"","shidu":"","fengxiang":"","sunrise_1":"","sunset_1":""}},{"city_name":"临安市","longitude":119.724,"latitude":30.234,"data":{"aqi":"","updatetime":"","wendu":"","fengli":"","shidu":"","fengxiang":"","sunrise_1":"","sunset_1":""}},{"city_name":"义乌市","longitude":120.06,"latitude":29.32,"data":{"aqi":"","updatetime":"","wendu":"","fengli":"","shidu":"","fengxiang":"","sunrise_1":"","sunset_1":""}},{"city_name":"乳山市","longitude":121.52,"latitude":36.89,"data":{"aqi":"","updatetime":"","wendu":"","fengli":"","shidu":"","fengxiang":"","sunrise_1":"","sunset_1":""}},{"city_name":"五家渠市","longitude":87.558,"latitude":44.363,"data":{"aqi":"","updatetime":"","wendu":"","fengli":"","shidu":"","fengxiang":"","sunrise_1":"","sunset_1":""}},{"city_name":"即墨市","longitude":120.45,"latitude":36.38,"data":{"aqi":"","updatetime":"","wendu":"","fengli":"","shidu":"","fengxiang":"","sunrise_1":"","sunset_1":""}},{"city_name":"句容市","longitude":119.16,"latitude":31.95,"data":{"aqi":"","updatetime":"","wendu":"","fengli":"","shidu":"","fengxiang":"","sunrise_1":"","sunset_1":""}},{"city_name":"吴江市","longitude":120.63,"latitude":31.16,"data":{"aqi":"","updatetime":"","wendu":"","fengli":"","shidu":"","fengxiang":"","sunrise_1":"","sunset_1":""}},{"city_name":"太仓市","longitude":121.1,"latitude":31.45,"data":{"aqi":"","updatetime":"","wendu":"","fengli":"","shidu":"","fengxiang":"","sunrise_1":"","sunset_1":""}},{"city_name":"宜兴市","longitude":119.822,"latitude":31.34,"data":{"aqi":"","updatetime":"","wendu":"","fengli":"","shidu":"","fengxiang":"","sunrise_1":"","sunset_1":""}},{"city_name":"富阳市","longitude":119.958,"latitude":30.048,"data":{"aqi":"","updatetime":"","wendu":"","fengli":"","shidu":"","fengxiang":"","sunrise_1":"","sunset_1":""}},{"city_name":"寿光市","longitude":118.73,"latitude":36.86,"data":{"aqi":"","updatetime":"","wendu":"","fengli":"","shidu":"","fengxiang":"","sunrise_1":"","sunset_1":""}},{"city_name":"常熟市","longitude":120.74,"latitude":31.64,"data":{"aqi":"","updatetime":"","wendu":"","fengli":"","shidu":"","fengxiang":"","sunrise_1":"","sunset_1":""}},{"city_name":"平度市","longitude":119.97,"latitude":36.77,"data":{"aqi":"","updatetime":"","wendu":"","fengli":"","shidu":"","fengxiang":"","sunrise_1":"","sunset_1":""}},{"city_name":"库尔勒市","longitude":86.06,"latitude":41.68,"data":{"aqi":"","updatetime":"17:00","wendu":"-1","fengli":"1级","shidu":"64%","fengxiang":"北风","sunrise_1":"09:43","sunset_1":"19:00"}},{"city_name":"张家港市","longitude":120.554,"latitude":31.876,"data":{"aqi":"","updatetime":"","wendu":"","fengli":"","shidu":"","fengxiang":"","sunrise_1":"","sunset_1":""}},{"city_name":"招远市","longitude":120.432,"latitude":37.356,"data":{"aqi":"","updatetime":"","wendu":"","fengli":"","shidu":"","fengxiang":"","sunrise_1":"","sunset_1":""}},{"city_name":"文登市","longitude":122.055,"latitude":37.194,"data":{"aqi":"","updatetime":"","wendu":"","fengli":"","shidu":"","fengxiang":"","sunrise_1":"","sunset_1":""}},{"city_name":"昆山市","longitude":120.979,"latitude":31.386,"data":{"aqi":"","updatetime":"","wendu":"","fengli":"","shidu":"","fengxiang":"","sunrise_1":"","sunset_1":""}},{"city_name":"江阴市","longitude":120.26,"latitude":31.91,"data":{"aqi":"","updatetime":"","wendu":"","fengli":"","shidu":"","fengxiang":"","sunrise_1":"","sunset_1":""}},{"city_name":"海门市","longitude":121.15,"latitude":31.89,"data":{"aqi":"","updatetime":"","wendu":"","fengli":"","shidu":"","fengxiang":"","sunrise_1":"","sunset_1":""}},{"city_name":"溧阳市","longitude":119.48,"latitude":31.43,"data":{"aqi":"","updatetime":"","wendu":"","fengli":"","shidu":"","fengxiang":"","sunrise_1":"","sunset_1":""}},{"city_name":"瓦房店市","longitude":121.979,"latitude":39.627,"data":{"aqi":"","updatetime":"","wendu":"","fengli":"","shidu":"","fengxiang":"","sunrise_1":"","sunset_1":""}},{"city_name":"石河子市","longitude":85.94,"latitude":44.27,"data":{"aqi":"","updatetime":"17:00","wendu":"-9","fengli":"1级","shidu":"86%","fengxiang":"西风","sunrise_1":"09:52","sunset_1":"18:52"}},{"city_name":"章丘市","longitude":117.526,"latitude":36.682,"data":{"aqi":"","updatetime":"","wendu":"","fengli":"","shidu":"","fengxiang":"","sunrise_1":"","sunset_1":""}},{"city_name":"胶南市","longitude":119.97,"latitude":35.88,"data":{"aqi":"","updatetime":"","wendu":"","fengli":"","shidu":"","fengxiang":"","sunrise_1":"","sunset_1":""}},{"city_name":"胶州市","longitude":120.033,"latitude":36.265,"data":{"aqi":"","updatetime":"","wendu":"","fengli":"","shidu":"","fengxiang":"","sunrise_1":"","sunset_1":""}},{"city_name":"荣成市","longitude":122.486,"latitude":37.166,"data":{"aqi":"","updatetime":"","wendu":"","fengli":"","shidu":"","fengxiang":"","sunrise_1":"","sunset_1":""}},{"city_name":"莱州市","longitude":119.942,"latitude":37.177,"data":{"aqi":"","updatetime":"","wendu":"","fengli":"","shidu":"","fengxiang":"","sunrise_1":"","sunset_1":""}},{"city_name":"莱西市","longitude":120.53,"latitude":36.86,"data":{"aqi":"","updatetime":"","wendu":"","fengli":"","shidu":"","fengxiang":"","sunrise_1":"","sunset_1":""}},{"city_name":"蓬莱市","longitude":120.75,"latitude":37.8,"data":{"aqi":"","updatetime":"","wendu":"","fengli":"","shidu":"","fengxiang":"","sunrise_1":"","sunset_1":""}},{"city_name":"襄阳市","longitude":112.122,"latitude":32.01,"data":{"aqi":"","updatetime":"","wendu":"","fengli":"","shidu":"","fengxiang":"","sunrise_1":"","sunset_1":""}},{"city_name":"金坛市","longitude":119.56,"latitude":31.74,"data":{"aqi":"","updatetime":"","wendu":"","fengli":"","shidu":"","fengxiang":"","sunrise_1":"","sunset_1":""}}]